[
  {
    "id": 1,
    "name": "Sivaraj Admin",
    "email": "admin@gmail.com",
    "password": "admin123",
    "role": "admin",
    "avatar": "",
    "lat": 13.0827,
    "lng": 80.2707,
    "pincode": "600001",
    "street": "Chennai GPO",
    "createdAt": "2025-01-01T00:00:00Z",
    "lastSeenAt": "2026-06-11T21:20:07.932Z"
  },
  {
    "id": 2,
    "name": "Rajesh Kumar",
    "email": "rajesh@gmail.com",
    "password": "Worker@123",
    "role": "worker",
    "avatar": "",
    "lat": 13.06,
    "lng": 80.25,
    "pincode": "600001",
    "street": "Anna Salai SO",
    "createdAt": "2025-01-05T00:00:00Z",
    "lastSeenAt": "2026-03-15T04:56:41.148Z"
  },
  {
    "id": 3,
    "name": "Priya Sharma",
    "email": "priya@gmail.com",
    "password": "Worker@123",
    "role": "worker",
    "avatar": "",
    "lat": 13.055,
    "lng": 80.245,
    "pincode": "600001",
    "street": "Anna Salai SO",
    "createdAt": "2025-01-06T00:00:00Z",
    "lastSeenAt": "2026-03-15T05:04:41.148Z"
  },
  {
    "id": 4,
    "name": "Arjun Patel",
    "email": "arjun@gmail.com",
    "password": "Worker@123",
    "role": "worker",
    "avatar": "",
    "lat": 13.09,
    "lng": 80.28,
    "pincode": "600001",
    "street": "Chennai GPO",
    "createdAt": "2025-01-07T00:00:00Z",
    "lastSeenAt": "2026-03-15T04:56:41.148Z"
  },
  {
    "id": 5,
    "name": "Sunita Verma",
    "email": "sunita@gmail.com",
    "password": "Worker@123",
    "role": "worker",
    "avatar": "",
    "lat": 18.9387,
    "lng": 72.8353,
    "pincode": "400001",
    "street": "Mumbai GPO",
    "createdAt": "2025-01-08T00:00:00Z",
    "lastSeenAt": "2026-03-15T05:04:41.148Z"
  },
  {
    "id": 6,
    "name": "Alice Johnson",
    "email": "alice@gmail.com",
    "password": "User@123",
    "role": "user",
    "avatar": "",
    "lat": 13.0827,
    "lng": 80.2707,
    "pincode": "600001",
    "street": "Chennai GPO",
    "createdAt": "2025-01-10T00:00:00Z",
    "lastSeenAt": "2026-03-15T05:03:41.148Z"
  },
  {
    "id": 7,
    "name": "Vikram Singh",
    "email": "vikram@gmail.com",
    "password": "Worker@123",
    "role": "worker",
    "avatar": "",
    "lat": 13.0621,
    "lng": 80.2503,
    "pincode": "600001",
    "street": "Anna Salai SO",
    "createdAt": "2025-01-12T00:00:00Z",
    "lastSeenAt": "2026-03-15T04:36:41.148Z"
  },
  {
    "id": 8,
    "name": "Suresh Babu",
    "email": "suresh@gmail.com",
    "password": "Worker@123",
    "role": "worker",
    "avatar": "",
    "lat": 13.07,
    "lng": 80.26,
    "pincode": "600001",
    "street": "Chennai GPO",
    "createdAt": "2025-01-15T00:00:00Z",
    "lastSeenAt": "2026-06-10T06:00:00.000Z"
  },
  {
    "id": 9,
    "name": "Kavya Reddy",
    "email": "kavya@gmail.com",
    "password": "User@123",
    "role": "user",
    "avatar": "",
    "lat": 13.0827,
    "lng": 80.2707,
    "pincode": "600001",
    "street": "Chennai GPO",
    "createdAt": "2025-02-01T00:00:00Z",
    "lastSeenAt": "2026-06-10T00:44:19.078Z"
  },
  {
    "id": 10,
    "name": "Ravi Kumar",
    "email": "ravi@gmail.com",
    "password": "User@123",
    "role": "user",
    "avatar": "",
    "lat": 13.0621,
    "lng": 80.2503,
    "pincode": "600001",
    "street": "Anna Salai SO",
    "createdAt": "2025-02-05T00:00:00Z",
    "lastSeenAt": "2026-06-10T06:00:00.000Z"
  },
  {
    "id": 1773413134689,
    "name": "Sivaraj .S",
    "email": "sivaraj96006653@gmail.com",
    "password": "User@123",
    "role": "user",
    "avatar": "",
    "lat": 12.255793,
    "lng": 79.413196,
    "pincode": "",
    "street": "",
    "createdAt": "2026-03-13T14:45:34.689Z",
    "lastSeenAt": "2026-03-15T05:05:11.148Z"
  }
]